Id,NAME,ADDRESS,CITY,STATE,ZIP,LAT,LON,PHONE,REVENUE,UTILIZATION
69176529-fd1f-3b3f-abce-a0a3626769eb,MOUNT AUBURN HOSPITAL,330 MOUNT AUBURN STREET,CAMBRIDGE,MA,02138,42.375967,-71.118275,6174923500,0.0,190
5e765f2b-e908-3888-9fc7-df2cb87beb58,STURDY MEMORIAL HOSPITAL,211 PARK STREET,ATTLEBORO,MA,02703,41.931653,-71.294503,5082225200,0.0,159
f1fbcbfb-fcfa-3bd2-b7f4-df20f1b3c3a4,LAWRENCE GENERAL HOSPITAL,ONE GENERAL STREET,LAWRENCE,MA,01842,42.700273,-71.161357,9786834000,0.0,479
e002090d-4e92-300e-b41e-7d1f21dee4c6,CAMBRIDGE HEALTH ALLIANCE,1493 CAMBRIDGE STREET,CAMBRIDGE,MA,02138,42.375967,-71.118275,6176652300,0.0,274
ef6ab57c-ed94-3dbe-9861-812d515918b3,CAPE COD HOSPITAL,88 LEWIS BAY ROAD,HYANNIS,MA,02601,41.748854,-70.74053599999998,5087711800,0.0,112
49318f80-bd8b-3fc7-a096-ac43088b0c12,COOLEY DICKINSON HOSPITAL INC THE,30 LOCUST STREET,NORTHAMPTON,MA,01060,42.327044,-72.67463000000002,4135822000,0.0,244
fbf6180e-b800-3ebe-b91d-93d0288c400e,BAYSTATE FRANKLIN MEDICAL CENTER,164 HIGH STREET,GREENFIELD,MA,01301,42.614671,-72.597063,4137730211,0.0,112
8b58cdd1-3d79-3126-8fe0-da2c54d6805c,CARNEY HOSPITAL,2100 DORCHESTER AVENUE,BOSTON,MA,02124,42.33196,-71.020173,6175062000,0.0,9
ecc51621-0af3-3b35-ac3e-8b1e34022e92,SAINT ANNE'S HOSPITAL,795 MIDDLE STREET,FALL RIVER,MA,02721,41.725351,-71.094162,5086745600,0.0,38
5d4b9df1-93ae-3bc9-b680-03249990e558,HOLYOKE MEDICAL CENTER,575 BEECH STREET,HOLYOKE,MA,01040,42.211656,-72.642448,4135342500,0.0,152
37b4d73f-652d-3033-a16e-d97b9e8b4cda,ANNA JAQUES HOSPITAL,25 HIGHLAND AVENUE,NEWBURYPORT,MA,01950,42.812141,-70.886646,9784631000,0.0,127
08bcda9c-f8c8-3244-82d4-fc306a7a55d3,BOSTON MEDICAL CENTER CORPORATION-,1 BOSTON MEDICAL CENTER PLACE,BOSTON,MA,02118,42.33196,-71.020173,6176388000,0.0,14
37c0de84-bcaf-3624-82bf-a89b2ac441b8,BEVERLY HOSPITAL CORPORATION,85 HERRICK STREET,BEVERLY,MA,01915,42.556659,-70.84496,9789223000,0.0,165
4861d01f-019c-3dac-a153-8334e50919f9,NORTH SHORE MEDICAL CENTER -,81 HIGHLAND AVENUE,SALEM,MA,01970,42.50128,-70.897502,9787411215,0.0,185
4f3a530e-a2f7-3de0-9a09-c0a70a9ab894,BERKSHIRE MEDICAL CENTER INC - 1,725 NORTH STREET,PITTSFIELD,MA,01201,42.452045,-73.26054,4134472000,0.0,60
f71ce1a9-cca7-3295-9a1e-c88ac3479b6f,MARLBOROUGH HOSPITAL,157 UNION STREET,MARLBOROUGH,MA,01752,42.349617,-71.547214,5084815000,0.0,41
c44f361c-2efb-3050-8f97-0354a12e2920,SIGNATURE HEALTHCARE BROCKTON HOSPITAL,680 CENTER STREET,BROCKTON,MA,02302,42.082543,-71.024638,5089417000,0.0,96
b1ddf812-1fdd-3adf-b1d5-32cc8bd07ebb,BETH ISRAEL DEACONESS HOSPITAL - PLYMOUTH,275 SANDWICH STREET,PLYMOUTH,MA,02360,41.897892,-70.62403,5087462000,0.0,375
b0e04623-b02c-3f8b-92ea-943fc4db60da,LOWELL GENERAL HOSPITAL,295 VARNUM AVENUE,LOWELL,MA,01854,42.638893,-71.32210699999997,9789376000,0.0,213
ebc3f5c4-6700-34af-8323-85621c313726,NOBLE HOSPITAL,115 WEST SILVER STREET,WESTFIELD,MA,01085,42.138838,-72.755911,4135682811,0.0,238
fd328395-ab1d-35c6-a2d0-d05a9a79cf11,MERCY MEDICAL CTR,271 CAREW STREET,SPRINGFIELD,MA,01104,42.115454,-72.539978,4137489000,0.0,107
d692e283-0833-3201-8e55-4f868a9c0736,HALLMARK HEALTH SYSTEM,585 LEBANON STREET,MELROSE,MA,02176,42.455723,-71.05901899999998,7819793000,0.0,631
d78e84ec-30aa-3bba-a33a-f29a3a454662,MASSACHUSETTS GENERAL HOSPITAL,55 FRUIT STREET,BOSTON,MA,02114,42.33196,-71.020173,6177262000,0.0,3
8ad64ecf-c817-3753-bee7-006a8e662e06,MORTON HOSPITAL,88 WASHINGTON STREET,TAUNTON,MA,02780,41.903323,-71.094984,5088287000,0.0,96
23834663-ed53-3da9-b330-d6e1ecb8428e,SOUTHCOAST HOSPITAL GROUP  INC,363 HIGHLAND AVENUE,FALL RIVER,MA,02720,41.725351,-71.094162,5086793131,0.0,125
44bef9d3-91c2-3005-93e0-ccf436348ff0,MASSACHUSETTS EYE AND EAR INFIRMARY -,243 CHARLES STREET,BOSTON,MA,02114,42.33196,-71.020173,6175237900,0.0,226
60457c13-adb2-3415-82c5-86ab5dab5f93,BAYSTATE MEDICAL CENTER,759 CHESTNUT STREET,SPRINGFIELD,MA,01199,42.115454,-72.539978,4137940000,0.0,17
a9f20dc1-5147-3789-bcef-bbecb41c5983,HOLY FAMILY HOSPITAL,70 EAST STREET,METHUEN,MA,01844,42.742751,-71.178588,9786870156,0.0,477
7fb56531-86bd-3e4a-8619-4df9942da309,BETH ISRAEL DEACONESS HOSPITAL - NEEDHAM,148 CHESTNUT STREET,NEEDHAM,MA,02494,42.281593,-71.242414,7814533002,0.0,268
03347b4d-994e-302b-848b-58019a4e274d,EMERSON HOSPITAL -,133 OLD ROAD TO 9 ACRE CORNER,W CONCORD,MA,01742,42.269478,-71.807783,9783691400,0.0,2
cb6a50e0-af76-3758-99ad-3200ede03fff,BETH ISRAEL DEACONESS MEDICAL CENTER,330 BROOKLINE AVENUE,BOSTON,MA,02215,42.33196,-71.020173,6176677000,0.0,6
9a7149fa-49fc-3c87-b935-d29c55808717,NEW ENGLAND BAPTIST HOSPITAL,125 PARKER HILL AVENUE,BOSTON,MA,02120,42.33196,-71.020173,6177545800,0.0,54
24cb4eab-6166-3530-bddc-a5a8a14a4fc1,MILFORD REGIONAL MEDICAL CENTER,14 PROSPECT STREET,MILFORD,MA,01757,42.158692,-71.521419,5084731190,0.0,3
e44f438a-601b-30fb-85eb-bfaf8ddcb5ad,HEYWOOD HOSPITAL -,242 GREEN STREET,GARDNER,MA,01440,42.586516,-71.988062,9786323420,0.0,356
ac8356a5-78f8-3a63-8a1e-59e832fd54e7,NASHOBA VALLEY MEDICAL CENTER,200 GROTON ROAD,AYER,MA,01432,42.562221,-71.58484399999998,9787849000,0.0,578
db0acede-4abe-3c01-8d03-5c68a190d8c7,SOUTH SHORE HOSPITAL,55 FOGG ROAD,SOUTH WEYMOUTH,MA,02190,42.24158900000001,-71.082651,7813408000,0.0,242
3d10019f-c88e-3de5-9916-6107b9c0263d,NEWTON-WELLESLEY HOSPITAL,2014 WASHINGTON STREET,NEWTON,MA,02462,42.331876,-71.208402,6172436000,0.0,294
f4e7709c-02f6-37ca-aeea-8247d74e88e7,WINCHESTER HOSPITAL,41 HIGHLAND AVENUE,WINCHESTER,MA,01890,42.452752,-71.144319,7817299000,0.0,186
12c9daf5-a29c-36c9-ac55-28972463e566,BETH ISRAEL DEACONESS HOSPITAL-MILTON INC,199 REEDSDALE ROAD,MILTON,MA,02186,42.24158900000001,-71.082651,6176964600,0.0,249
226098a2-6a40-3588-b5bb-db56c3a30a04,GOOD SAMARITAN MEDICAL CENTER,235 NORTH PEARL STREET,BROCKTON,MA,02301,42.082543,-71.024638,5084273000,0.0,38
b7175ab4-bde5-3848-891b-579bccb77c7c,TUFTS MEDICAL CENTER,800 WASHINGTON STREET,BOSTON,MA,02111,42.33196,-71.020173,6176365000,0.0,33
3bd5eda0-16da-3ba5-8500-4dfd6ae118b8,NORWOOD HOSPITAL,800 WASHINGTON STREET,NORWOOD,MA,02062,42.18736,-71.195955,5087721000,0.0,12
d5117822-5756-389d-9547-891a372d580f,FALMOUTH HOSPITAL,67 & 100 TER HEUN DRIVE,FALMOUTH,MA,02540,41.57072,-70.556682,5085485300,0.0,346
f99c74cc-7d1a-3f95-9a33-4a9357bf2f2a,UMASS MEMORIAL MEDICAL CENTER INC,55 LAKE AVENUE NORTH,WORCESTER,MA,01655,42.269478,-71.807783,5083341000,0.0,107
6f122869-a856-3d65-8db9-099bf4f5bbb8,LAHEY HOSPITAL & MEDICAL CENTER  BURLINGTON,41 & 45 MALL ROAD,BURLINGTON,MA,01803,42.503227,-71.201713,7817445100,0.0,193
465de31f-3098-365c-af70-48a071e1f5aa,METROWEST MEDICAL CENTER,115 LINCOLN STREET,FRAMINGHAM,MA,01701,42.307905,-71.436196,5083831000,0.0,322
1eaf97fa-9de6-38de-a9c4-6efe5dc574be,ST VINCENT HOSPITAL,123 SUMMER STREET,WORCESTER,MA,01608,42.269478,-71.807783,5083635000,0.0,65
80e919cc-df1a-3838-b75e-541564a286e5,NANTUCKET COTTAGE HOSPITAL,57 PROSPECT STREET,NANTUCKET,MA,02554,41.293416,-70.10216899999999,5082281200,0.0,18
8e00f524-3a5f-313e-9542-378dfc61193f,MARTHA'S VINEYARD HOSPITAL INC,ONE HOSPITAL ROAD  FIRST FL  WING 5   PO BOX 1477,OAK BLUFFS,MA,02557,41.45716,-70.556101,5086930410,0.0,11
5103c940-0c08-392f-95cd-446e0cea042a,SHRINERS' HOSPITAL FOR CHILDREN (THE),516 CAREW STREET,SPRINGFIELD,MA,01104,42.115454,-72.539978,4137872000,0.0,152
ff9863d3-3fa3-3861-900e-f00148f5d9c2,SHRINERS' HOSPITAL FOR CHILDREN - BOSTON  THE,51 BLOSSOM STREET,BOSTON,MA,02114,42.33196,-71.020173,6177223000,0.0,1
e0c85f99-d520-3f26-8dcd-cfbf172afc5a,Haverhill Community Based Outpatient Clinic (CBOC),108 Merrimack St.,Haverhill,MA,01830,42.77449,-71.07901,800-838-6331,0.0,29
ed146054-9dd5-3f0b-83df-d29d983039c3,Hyannis Outpatient Clinic,233 Stevens St,Hyannis,MA,02601,41.651745,-70.294235,508-771-3190,0.0,41
5b7aa5b4-aa6f-3acc-bd96-01ce774cb614,Lowell Vet Center,10 George Street  Gateway Center,Lowell,MA,01852,42.642513,-71.3062,978-453-1151,0.0,54
7ae92f6b-21d5-3e24-8265-d69bd2b9b4ca,PCP856,43 PENNYWISE PATH,EDGARTOWN,MA,02539-7031,41.37295,-70.482349,508-627-7984,0.0,18
b6d84478-28bc-3ab1-8b5a-c64299f8960b,PCP2361,32 ROBBINS RD,WALPOLE,MA,02081-1925,42.146285999999996,-71.255604,508-524-6299,0.0,23
9ec35f20-8d1d-34d6-8663-2ef4d94521da,PCP3000,8 GOFFE ST,HADLEY,MA,01035-9559,42.356491,-72.568632,413-587-3111,0.0,29
118326c9-d96a-3957-a0a0-e56768929308,PCP3018,30 CHURCH ST,BELMONT,MA,02478-4987,42.395317,-71.180284,617-489-2559,0.0,40
1ac28f96-0233-3312-9f3e-111104ccbf14,PCP7068,130 MAPLE ST,SPRINGFIELD,MA,01103-2214,42.115454,-72.539978,413-739-0882,0.0,50
e43fd7ef-4ec5-3f03-a270-c36158d48829,PCP7127,100 GROVE ST,WORCESTER,MA,01605-2647,42.269478,-71.807783,978-618-5807,0.0,12
e447a2df-4bd5-34e4-a5f9-82f9da952fd5,PCP7166,38 SOUTHWEST CUTOFF UNIT B,NORTHBOROUGH,MA,01532-2159,42.323342,-71.646236,508-393-0890,0.0,21
735d39d3-d76b-30e0-909d-df29f162c687,PCP7174,1200 CONVERSE ST,LONGMEADOW,MA,01106-1675,42.047565000000006,-72.57113000000001,413-454-7779,0.0,36
438e9d44-1f8f-3c7f-807c-754e714c4e29,PCP11164,441 WASHINGTON AVE,CHELSEA,MA,02150-3679,42.396824,-71.031348,617-889-5528,0.0,74
ac9a97a1-04a9-3b38-a235-891f47b50bd4,PCP12089,342 GREAT RD,ACTON,MA,01720-4000,42.483953,-71.43849499999999,978-266-0017,0.0,32
14b1a38d-3553-32e3-b5bf-b02e34c4e675,PCP16522,915 ROUTE 28,HARWICH,MA,02645-3448,41.696512,-70.070113,508-432-5640,0.0,28
9cc30835-37b7-309e-9503-f0cea4add0f2,PCP16675,4 S SPOONER ST,PLYMOUTH,MA,02360-4447,41.897892,-70.62403,508-747-0576,0.0,25
4d1f1bfd-2151-3665-96e1-07361b26e412,PCP17518,664 MAIN ST A,AMHERST,MA,01002-2439,42.363534,-72.50729100000001,413-210-2843,0.0,28
17858e6e-2c6a-3458-8ef6-2c0dd5d834cf,PCP17778,840 MAIN ST,MILLIS,MA,02054-1542,42.173103000000005,-71.36375600000001,508-376-4262,0.0,74
359955e0-ad22-3e44-808d-9f4b6908f262,PCP18766,1311 BEDFORD ST,FALL RIVER,MA,02723-2637,41.725351,-71.094162,508-685-3057,0.0,13
3411f709-55c9-3006-a79f-50c052aa070d,PCP19101,84 N MAIN ST,ANDOVER,MA,01810-3835,42.648044,-71.161751,978-470-3453,0.0,61
eddb3499-bc41-38e3-abd5-7d49a906a725,PCP19538,224 GOODMANS HILL RD,SUDBURY,MA,01776-2414,42.383367,-71.42107,978-443-3303,0.0,61
3c2202f6-dc19-3f96-9229-b28daa57e231,PCP21824,250 POND ST,BRAINTREE,MA,02184-5391,42.205416,-71.00216800000003,781-348-3904,0.0,29
edfb29dd-5916-362b-9e64-451844588844,PCP25781,10 SEARS ST,SHELBURNE FALLS,MA,01370-1009,42.609509,-72.74698000000001,610-444-5976,0.0,59
aac92e78-fb05-349b-ab75-da8d6048352f,PCP26041,1662 FALMOUTH RD,CENTERVILLE,MA,02632-2948,41.662727,-70.357208,508-771-1900,0.0,82
9dc2efa2-a015-3af2-a9aa-077cbb862801,PCP26937,60 ISLAND ST,LAWRENCE,MA,01840-1810,42.700272999999996,-71.161357,978-691-5561,0.0,28
306d6b38-22df-3d57-928b-0b6325551b86,PCP27714,4 BOUND BROOK CT,SCITUATE,MA,02066-1205,42.205062,-70.74297800000001,339-793-0225,0.0,28
40b31ec9-f9fa-31aa-a969-696b0ed228cb,PCP28800,GAIL A RACICOT EDD,SHREWSBURY,MA,01545-5265,42.284766999999995,-71.714228,508-752-7514,0.0,37
3aa3a744-7d82-38fc-a8b8-87a4f1ab78de,PCP30550,1 PROSPECTOR RD,BILLERICA,MA,01821-3046,42.559673,-71.260947,978-667-8977,0.0,35
7084b460-d99c-3d71-81dc-09913a4624c9,PCP31586,12 BEACONSFIELD RD,BROOKLINE,MA,02445-3305,42.323853,-71.142003,617-566-6426,0.0,37
0d6269d7-d51a-3bf5-ba28-ad4090e2a88f,ORTHOPEDIC TRAUMA P.C.,100 HIGHLAND ST,MILTON,MA,02186-3874,42.241557,-71.082432,617-696-2300,0.0,71
ecdc917d-a909-3a96-81b7-d6463b45afa5,CHICOPEE EYECARE  P.C.,113 CTR ST,CHICOPEE,MA,01013-1667,42.175668,-72.572257,413-592-7777,0.0,35
984fe9f6-06e9-3d7f-826d-c9ee0b3755d0,PCP36988,871 VARNUM AVE,LOWELL,MA,01854-1932,42.63898,-71.321141,978-459-4544,0.0,28
42b121dc-0634-3067-9e79-465562a2b74e,PCP37143,24 LANDMARK LN,ROCKPORT,MA,01966-1239,42.656952000000004,-70.60463,978-546-3838,0.0,115
5223d897-f120-39cf-a356-d2e6eb5e88e9,PCP45585,42 WASHINGTON ST,WELLESLEY,MA,02481-1817,42.305932,-71.282917,781-416-7317,0.0,28
67ca2f4d-63b0-3182-b862-ddec66ee6bf4,NORTH SHORE EYE CARE  INC,116 R HIGHLAND AVE,SALEM,MA,01970-2723,42.499248,-70.898204,978-745-0654,0.0,64
04f553c5-5858-30a6-b318-f1e07a89c8bf,PCP51535,99 WALNUT ST,SAUGUS,MA,01906-1981,42.468432,-71.01394599999999,617-791-4805,0.0,73
001d000f-be37-3cf2-9339-6b613dd0117d,EYE ASSOCIATES PC,500 SALEM ST,WILMINGTON,MA,01887-1200,42.564646999999994,-71.164516,978-658-2880,0.0,59
cac21f35-c3b3-36a7-a08b-4ecbafb9df43,PCP58110,84 HIGH ST,MEDFORD,MA,02155-3819,42.423844,-71.10923100000001,781-395-0304,0.0,16
2de9783e-fb2f-3642-b529-127b76017354,BETH ISRAEL DEACONESS HOSPITAL - PLYMOUTH INC,45 RESNIK RD,PLYMOUTH,MA,02360-4843,41.897892,-70.62403,508-746-1072,0.0,57
6e4e0ab8-f77b-3ea2-9f88-c3804f9e3c20,CAPE ANN EYE SPECIALISTS  P.C.,35 MIDDLE ST,GLOUCESTER,MA,01930-5774,42.62885,-70.685875,978-281-0600,0.0,32
e0eec05c-8ee7-357b-90c8-9656b914ccc8,PCP60236,600 BROADWAY,SAUGUS,MA,01906-3201,42.468432,-71.01394599999999,781-231-2330,0.0,27
c36c48c8-ef2d-3343-b17d-62b892598fd6,DRS. SHOCAIR AND REDA  P.C.,6 LEXINGTON ST,WALTHAM,MA,02452-4401,42.388921,-71.24226800000001,781-899-5555,0.0,66
32dd69c8-377f-3760-b969-8742d583217e,PCP63830,100 HIGHLAND ST,MILTON,MA,02186-3878,42.241557,-71.082432,617-698-4830,0.0,76
c72d4717-c134-3926-80b9-912bc591aabf,MIDDLESEX REHABILITATION ASSOCIATES  INC,131 COOLIDGE ST,HUDSON,MA,01749-1331,42.389071,-71.545864,978-562-0345,0.0,43
1a109958-31dc-3cbf-9b84-9c020cdef923,PCP66586,173 MOUNT AUBURN ST,WATERTOWN,MA,02472-4005,42.369451,-71.177925,617-522-4881,0.0,59
3fc7a7c6-9bb7-3495-a79e-829833965b42,PCP72376,369 MERRIMACK ST,METHUEN,MA,01844-6562,42.742751,-71.178588,978-794-7677,0.0,57
2dc7a6b2-bee6-3ae6-b3fe-4117382d73ee,PCP78624,56 MAIN ST,ASHBURNHAM,MA,01430-1242,42.648697,-71.919896,978-790-5789,0.0,47
fb28cf4c-955b-32c7-906e-4b9ad6f5678a,LC HOLBROOK  INC.,169 N FRANKLIN ST,HOLBROOK,MA,02343-1111,42.140346,-70.997861,781-767-5200,0.0,15
08a8eb50-654a-3acf-ac45-58c10823aa40,PCP82911,233 HARVARD ST,BROOKLINE,MA,02446-5017,42.323853,-71.142003,781-674-9124,0.0,11
e31728d2-e211-354d-9bb6-798887761da5,PCP88738,9 MILL AND MAIN PL,MAYNARD,MA,01754-2651,42.425955,-71.45625600000001,,0.0,55
222b33ea-4ace-33a6-bb73-3121c9c895bd,PCP89589,632 MAIN ST,DENNIS,MA,02638-1906,41.706123,-70.164823,,0.0,74
14ef3da1-8343-3a2e-901e-9adc753b81b7,PCP90102,334 WALNUT ST EXT,AGAWAM,MA,01001,42.064731,-72.653477,,0.0,85
ea04cb4f-a20f-3ae3-a938-79a5ffb2cc86,PCP90191,142 SHIRLEY AVE,REVERE,MA,02151-3211,42.421005,-70.99036,,0.0,56
c7aa0e46-5ba7-31a2-8c89-a6080f4a0b69,PCP91229,333 ELM ST,DEDHAM,MA,02026-4530,42.246871999999996,-71.179462,,0.0,91
836ab8bc-9c78-3d9a-bab4-395e87cbc3db,PCP93212,380 LOWELL ST,WAKEFIELD,MA,01880-1984,42.50436,-71.064061,,0.0,67
f9d686d4-0133-30a3-ab72-80c9e93921f4,PCP95496,169 N FRANKLIN ST,HOLBROOK,MA,02343-1111,42.140346,-70.997861,,0.0,42
20035438-faf9-3434-b171-8bf6dd712735,PCP117478,1234 BROADWAY,SOMERVILLE,MA,02144-1703,42.390445,-71.101033,617-666-4321,0.0,72
49bf5812-29f3-32c7-88de-329eb3864885,PCP118875,627 COLLEGE HWY 2,SOUTHWICK,MA,01077-9829,42.05257,-72.777353,,0.0,31
1776755d-7040-3d15-b588-d67de0149d76,PCP124300,5 CROWLEY RD,WESTHAMPTON,MA,01027-9637,42.314078,-72.777977,,0.0,33
ef3ba8f6-dfc8-3bc3-b630-dfceb54940e1,PCP129239,100 HIGHLAND ST,MILTON,MA,02186-3874,42.241557,-71.082432,,0.0,74
d8a8566f-d94f-3f66-98f9-3f3eb22fb6c1,PCP134941,421 MERRIMACK ST,METHUEN,MA,01844-5865,42.742751,-71.178588,,0.0,88
04831a0b-4b17-31f7-96de-88a95271d2f8,PCP136346,63 MAIN ST,BRIDGEWATER,MA,02324-1455,41.972376000000004,-70.978773,,0.0,32
71b08c55-0ff2-3b9c-9779-f0e77c1598e0,GROTON MEDICAL ASSOCIATES  LLC,100 BOSTON RD E,GROTON,MA,01450-1879,42.61176,-71.565269,978-448-4300,0.0,51
b6471dd5-648d-3f66-9ff4-c66afbf5df2c,PCP144838,31 LAKE ST,GARDNER,MA,01440-3889,42.584206,-71.988737,,0.0,63
f14c80d1-186a-3f01-b86c-4c3d4c10b387,EYE ASSOCIATES OF SOMERVILLE INC.,174 BROADWAY,SOMERVILLE,MA,02145-3129,42.390445,-71.101033,617-666-1800,0.0,32
e88cb3ec-2287-34a4-bd38-6127df29fb29,PETER J KELLY MD PC,362 SEWALL ST,LUDLOW,MA,01056-2711,42.183577,-72.457812,413-589-7308,0.0,86
713ea039-9274-3868-ae43-2d2a7b74e334,PCP157187,50 TREMONT ST,MELROSE,MA,02176-2721,42.455723,-71.05901899999999,,0.0,30
bf831193-0c51-3d98-98bf-3ddd11eb4372,PCP168778,341 STATE RD,DARTMOUTH,MA,02747-4313,41.56651,-70.958229,,0.0,42
a1990b63-4dcb-34ff-a398-7c405998740d,MICHAEL J LANDMAN MD PC,25 MARSTON ST,LAWRENCE,MA,01841-2310,42.700272999999996,-71.161357,978-686-2400,0.0,89
e8df8938-2576-3e8a-900b-5a41220899d9,RENIN ASSOCIATES  P.C.,6 ESSEX CTR DR,PEABODY,MA,01960-2907,42.534279,-70.969782,978-531-0677,0.0,59
f1ca4c4d-b59e-3b0a-9b15-6e67f09a2a7f,PCP172988,1330 BEACON ST,BROOKLINE,MA,02446-3202,42.323853,-71.142003,617-297-4700,0.0,77
6a4e017a-9c47-32b2-824d-03ea5f147c31,PCP178133,28 PACIFIC ST,ROCKLAND,MA,02370-2214,42.129251000000004,-70.908736,,0.0,44
f02902d7-aafe-3630-9022-988251e1e390,PCP178844,211 MORRISON AVE,SOMERVILLE,MA,02144-2017,42.390445,-71.101033,617-628-7155,0.0,34
b43891e9-15b2-3dd0-ae9a-319739ed65ba,PCP179741,490 N MAIN ST,RANDOLPH,MA,02368-3741,42.178993,-71.052654,,0.0,46
d0bf7c57-4f7c-3ff3-8995-14f5736df59f,PCP179871,4 W PARISH COURT,HAVERHILL,MA,01832-1166,42.782945,-71.087436,978-758-1177,0.0,68
7a050787-19eb-3af2-90c4-f46dada2b554,PCP183272,829 AMERICAN LEGION HWY,WESTPORT,MA,02790-4128,41.579794,-71.081822,,0.0,50
c188949c-0d91-3c90-beb7-0969d5f40d27,COMMONWEALTH PATHOLOGY PARTNERS PC,2014 WASHINGTON ST,NEWTON,MA,02462-1607,42.331876,-71.208402,978-882-6194,0.0,39
8644614a-6303-3dd9-af35-721d16154a37,PCP187431,92 MONTVALE AVE,STONEHAM,MA,02180-3601,42.474208000000004,-71.097665,,0.0,30
242e5bbe-87a7-3a15-8847-8ff68aba0c09,DALTON MEDICAL ASSOCIATES  LLP,33 N ST,DALTON,MA,01226-1202,42.479819,-73.15377600000001,413-684-2110,0.0,74
ccce1094-1ec7-3b86-af36-bf98132ac9f4,PCP190661,15 COLLEGE HWY,SOUTHAMPTON,MA,01073-9274,42.226949,-72.74158800000001,413-527-5613,0.0,35
5a3e9bdd-84da-3794-a651-4adaeb8821f4,BERNARD J DURANTE MD PC,30 ALDRIN RD,PLYMOUTH,MA,02360-4804,41.897892,-70.62403,508-746-8977,0.0,49
811ed44d-aa37-3d4c-b1f3-541d358c5a1f,PCP191516,222 MILLIKEN BLVD,FALL RIVER,MA,02721-1623,41.725351,-71.094162,508-672-6381,0.0,33
f2c890aa-a295-3c61-b35e-bfef8005ff94,NEW ENGLAND COMMUNITY MEDICAL SERVICES PLLC,89 MORTON ST,ANDOVER,MA,01810-2036,42.648044,-71.161751,,0.0,69
eed3b05a-817f-3589-a3df-aa32e935052b,BRIDGEWELL  INC,35 MARKET ST,LOWELL,MA,01852-6246,42.63898,-71.321141,978-459-0389,0.0,49
489ea445-98d2-3ab6-a7a5-119f343eee53,REHABILITATION MEDICAL ASSOCIATES  P.C.,250 POND ST,BRAINTREE,MA,02184-5351,42.205416,-71.00216800000003,781-848-1300,0.0,45
1a87a637-8a07-379d-9d21-3cf3be2b6430,PHYSICAL THERAPY U INC,75 A SCOTLAND BLVD,BRIDGEWATER,MA,02324-2302,41.972376000000004,-70.978773,508-697-2000,0.0,49
7adcb4f2-6ad3-3710-aeff-366b37e1ceaa,PCP233401,281 GRANBY RD,SOUTH HADLEY,MA,01075-2227,42.256208,-72.58103,413-536-8315,0.0,23
8d7d041f-f7a1-3703-80bb-058ff1a4b697,MT AUBURN PROFESSIONAL SERVICES,355 WAVERLEY OAKS RD,WALTHAM,MA,02452-8480,42.388921,-71.24226800000001,781-893-5550,0.0,23
18362426-1324-35e6-a226-adccb56a7a36,PCP258407,98 S MAIN ST,MIDDLEBOROUGH,MA,02346-2123,41.878004,-70.86926700000001,508-947-2155,0.0,36
a8b72116-7c15-396c-afd2-4702a6c24389,NORTH BRIDGE IMAGING GROUP  LLC,321 MAIN ST,ACTON,MA,01720-3718,42.483953,-71.43849499999999,978-263-1131,0.0,46
2a65f7b6-b39e-318c-8fe0-d2e89856aae0,CAMBRIDGE PUBLIC HEALTH COMMISSION,230 HIGHLAND AVE,SOMERVILLE,MA,02143-1408,42.390445,-71.101033,617-591-4500,0.0,44
240588ee-be2f-362c-92e3-b4724a0f27a9,BAY STATE PHYSICAL THERAPY OF RANDOLPH PC,67 PARKHURST RD,CHELMSFORD,MA,01824-1518,42.597055,-71.3697,978-735-2375,0.0,44
dc881e6e-9d55-39d1-b15d-6e5d8788b6d6,PARTNERS COMMUNITY PHYSICIANS ORGANIZATION INC,101 MAIN ST,MEDFORD,MA,02155-4530,42.423844,-71.10923100000001,,0.0,48
56c35784-5ea6-3724-9642-96ee60042645,STEWARD MEDICAL GROUP  INC,77 WARREN ST 2ND FLOOR,BRIGHTON,MA,02135-3601,42.33196,-71.020173,617-562-5525,0.0,61
60812e0d-af77-39f2-ad5b-c9ccf6b2fcb3,JORDAN PHYSICIAN ASSOCIATES INC.,10 CORDAGE PARK CIR,PLYMOUTH,MA,02360-7318,41.897892,-70.62403,508-830-6991,0.0,53
d280bb3c-0c3d-327f-aefd-45bce5923116,FOUNDATION MEDICAL PARTNERS INC.,68 MAIN ST,PEPPERELL,MA,01463-1560,42.670643,-71.602858,978-433-6317,0.0,70
16cc9727-9f60-3f98-825e-4e1264b827bf,CONNECTIONS PHYSICAL THERAPY INC,406 R WASHINGTON ST,HOLLISTON,MA,01746-1342,42.195951,-71.45343000000001,508-429-4940,0.0,20
5288284a-64b0-30ed-9b49-6b7abcb364f4,WINCHESTER PHYSICIAN ASSOCIATES INC,500 SALEM ST,WILMINGTON,MA,01887-1200,42.564646999999994,-71.164516,978-988-6000,0.0,29
7bd3e0e5-faf5-3e36-8dfa-2ba55fe68ae0,SAINT VINCENT PHYSICIAN SERVICES INC,123 SUMMER ST,WORCESTER,MA,01608-1216,42.269478,-71.807783,508-363-5630,0.0,43
5003f481-9b24-365a-95a9-5eb30411185f,BRIGHAM AND WOMENS PHYSICIANS ORGANIZATION INC,1832 CENTRE ST,WEST ROXBURY,MA,02132-1901,42.33196,-71.020173,617-469-4000,0.0,29
82ff180d-fef1-36f4-b6b1-5e3460b972bb,MINUTECLINIC DIAGNOSTIC OF MASSACHUSETTS  LLC,105 MAIN ST,MAYNARD,MA,01754-2514,42.425955,-71.45625600000001,866-389-2727,0.0,17
fc6361e2-3d6c-36d2-bd4a-6e53df8168ce,STEWARD MEDICAL GROUP  INC,736 CAMBRIDGE ST,BRIGHTON,MA,02135-2907,42.33196,-71.020173,617-789-2430,0.0,51
25544c1b-9223-3f75-b80a-80bbf2dfe37c,PCP323987,6 MILL ST,ARLINGTON,MA,02476-4719,42.418721999999995,-71.163912,781-646-1717,0.0,51
0d307ea2-118e-39a2-8619-7bf9948df58a,MASS OPTOMETRIC ASSOCIATES  PLLC,15 HIGHLAND AVE,SEEKONK,MA,02771-5805,41.839797999999995,-71.31804699999999,508-336-4096,0.0,47
37c197b5-110f-339b-942e-272137f770b2,CD PRACTICE ASSOCIATES INC,14 WILLIAMS ST,WILLIAMSBURG,MA,01096-9427,42.405414,-72.726043,413-268-3616,0.0,34
62638807-39a4-3774-a041-80962639a4b6,VIRTUAL RADIOLOGIC PROFESSIONALS  LLC,4 ATWATER DR,WESTFORD,MA,01886-3634,42.585541,-71.44025,978-496-1391,0.0,59
e6adb884-b133-331f-8973-5298bd494bc8,SOUTH BAY MENTAL HEALTH CENTER  INC.,70 EVERETT AVE,CHELSEA,MA,02150-2363,42.396824,-71.031348,617-466-6650,0.0,65
b62a2f26-b410-32e0-b1c0-b94161f3a7c4,ODONATA PSYCHOTHERAPY AND RETREAT CENTER LLC,19 PINE RD,FORESTDALE,MA,02644-1413,41.683488,-70.510786,774-228-2609,0.0,69
c2751801-8047-30ce-ba9b-72afebaae76a,UROLOGY CONSULTANTS OF NS,1 WALLACE BASHAW JR WAY,NEWBURYPORT,MA,01950,42.812358,-70.89109499999998,978-997-1400,0.0,48
d3aa8afa-a62b-3f3a-87d8-f9c6bc64afa7,PCP347488,104 LINCOLN RD,LINCOLN,MA,01773-3800,42.425506,-71.310812,781-259-0166,0.0,42
551732c0-2aa2-3a8f-a9b0-8543e015e832,BERKSHIRE FACULTY SERVICES INC,2 PARK ST,ADAMS,MA,01220-2032,42.62556,-73.119828,413-743-1263,0.0,39
390548a3-ed68-3642-af72-9d51cac41825,STEWARD MEDICAL GROUP  INC,2110 DORCHESTER AVE,DORCHESTER CENTER,MA,02124-5628,42.33196,-71.020173,617-506-4740,0.0,31
5d4a38f6-6b92-35b4-9a6e-16304971ce2b,WACHUSETT RADIOLOGY INC,55 HOSPITAL DR,WINCHENDON,MA,01475-1820,42.66816,-72.055644,978-297-2311,0.0,47
9a01482a-dc55-3916-9fe9-016717fe40a4,PCP353491,73 W MAIN ST,HOPKINTON,MA,01748-1619,42.224096,-71.54048900000001,,0.0,3
a0a14713-50c4-3818-b0cb-8c2047f1458c,BAY STATE PHYSICAL THERAPY OF RANDOLPH PC,7 HERRING POND RD,CEDARVILLE,MA,02360-6903,41.888191,-70.59996600000002,508-833-5180,0.0,57
5f178592-5066-33f6-8594-e6f58caca21c,MASHPEE FAMILY MEDICINE,5 INDUSTRIAL DRIVE,MASHPEE,MA,2649,41.6050403,-70.4944565,508-477-4282,0.0,3
92819cdc-db9e-387e-8c4f-4b2b4e8b2e4f,SAINTS WALK-IN MEDICAL CENTER - URGENT CARE AND OCCUPATIONAL HEALTH,1230 BRIDGE STREET,LOWELL,MA,1850,42.6653405,-71.3038939,978-459-2273,0.0,8
4e916854-3a59-3f17-bb16-7c406148d822,HANOVER FAMILY HEALTH AND URGENT CARE,1399 WASHINGTON STREET,HANOVER,MA,2339,42.144202,-70.844005,781-829-1000,0.0,2
a76bda1d-f42d-3046-b8c6-021f3db0a086,WALK IN AND PRIMARY CARE,808 MAIN STREET,WALTHAM,MA,2451,42.3760766,-71.242893,781-894-8200,0.0,20
7116c200-6663-3503-8314-1ee16845e5d3,SAINTS WALK-IN MEDICAL CENTER - URGENT CARE AND OCCUPATIONAL HEALTH,85 PARKHURST ROAD,CHELMSFORD,MA,1824,42.6257767,-71.3593401,978-458-6868,0.0,26
3265f387-6c51-32ee-8f6d-b2a89caa34d5,CHELSEA MGH HEALTH CENTER MEDICAL WALK IN,151 EVERETT AVENUE,CHELSEA,MA,2150,42.3961274,-71.0392206,617-884-8300,0.0,48
c63d0602-724d-3d74-958a-a31b1364eaef,HARVARD VANGUARD BRAINTREE PRACTICE URGENT CARE,111 GROSSMAN DRIVE,BRAINTREE,MA,2184,42.21004,-70.999539,781-849-1000,0.0,6
cbbee84d-7644-3b24-9f41-e3747f5050df,FAMILY HEALTH CENTER,26 QUEEN STREET,WORCESTER,MA,1610,42.2590345,-71.8139319,508-860-7777,0.0,2
f1313c7d-3148-335b-adc3-337f15567b82,WINCHESTER HOSPITAL FAMILY MEDICAL CENTER,500 SALEM STREET,WILMINGTON,MA,1887,42.5805281,-71.1438654,978-988-6105,0.0,22
df5a38ee-e493-3572-8f92-bb695aef9891,MID CAPE MEDICAL CENTER,489 BEARSES WAY,HYANNIS,MA,2601,41.6624796,-70.3008223,508-771-4092,0.0,6
e3f1676b-9b40-3544-af4e-17a06bbb98bb,CODMAN SQUARE HEALTH CENTER,637 WASHINGTON STREET,DORCHESTER,MA,2124,42.2894365,-71.0719941,617-825-9660,0.0,8
b81688f5-bd0e-3c99-963f-860d3e90ab5d,URGENT CARE MEDICAL CLINIC,581 BOYLSTON STREET,BOSTON,MA,2116,42.3505548,-71.0766054,617-247-1400,0.0,3
6e62e63b-c39a-3211-99d8-8b8f0f06774e,GREAT BROOK VALLEY HEALTH CENTER,19 TACOMA STREET,WORCESTER,MA,1605,42.3023113,-71.7661395,508-852-1805,0.0,3
62fa9127-485f-3032-87cc-6576d91fec94,LAHEY CLINIC NORTHSHORE,1 ESSEX CENTER DRIVE,PEABODY,MA,1960,42.5369864,-70.9465423,978-538-4000,0.0,5
b60f8daf-0362-3c28-9b54-216e7f3e80bd,FALMOUTH HOSPITAL CLINIC AT BOURNE,1 TROWBRIDGE ROAD,BUZZARDS BAY,MA,2532,41.740785,-70.5980121,508-743-0322,0.0,3
d672f853-e2a5-324e-98fa-c6d5f8dfc255,WALTHAM URGENT CARE,9 HOPE AVENUE,WALTHAM,MA,2453,42.3700513,-71.2490152,617-243-5591,0.0,7
98d42012-384f-39d9-b210-cc654b9441f6,FONTAINE MEDICAL CENTER,525 LONG POND DRIVE,HARWICH,MA,2645,41.722586,-70.0372004,508-432-4100,0.0,2
27f06acd-f732-3871-be87-889fef7d9010,CONCENTRA URGENT CARE - GREENFIELD,489 BERNARDSTON ROAD,GREENFIELD,MA,1301,42.6087525,-72.5857131,413-772-5055,0.0,2
7ffe74ac-786d-3c6d-bcb9-323352f6149c,CONCENTRA URGENT CARE - SPRINGFIELD,140 CARANDO DRIVE,SPRINGFIELD,MA,1104,42.1463818,-72.5335973,413-746-4006,0.0,3
b06770b5-b695-3c1a-9685-ae2223966ff7,GENERAL HEALTH CARE,66 SOUTH WASHINGTON STREET,NORTH ATTLEBORO,MA,2760,41.9799756,-71.3329695,508-643-0100,0.0,2
a9afd4c9-8443-3b5a-a486-07c3bb109b3f,RIVER BEND MEDICAL GROUP - CHICOPEE OFFICE - URGENT CARE,444 MONTGOMERY STREET,CHICOPEE,MA,1020,42.1718584,-72.5849672,413-594-3111,0.0,2
9b5f23f1-c387-3a77-9359-752d26d7f997,FAMILY DOCTORS,250 PARADISE ROAD,SWAMPSCOTT,MA,1907,42.47636,-70.9125322,781-596-4150,0.0,6
108ccece-277a-396f-8bf2-1527f74458eb,ON CALL URGENT CARE CENTER,51 LOCUST STREET,NORTHAMPTON,MA,1060,42.3323152,-72.6545646,413-584-7425,0.0,3
f7a6cc79-3075-3124-9f62-6fe562440b1d,HAWTHORN MEDICAL URGENT CARE CENTER,237 STATE ROAD,NORTH DARTMOUTH,MA,2747,41.6392025,-70.9815648,508-961-0861,0.0,2
700056a6-3aea-3efd-8423-a9acbd38a5ea,ROUTE 44 MEDICAL WALK-IN,106 UNITED STATES HIGHWAY 44,RAYNHAM,MA,2767,41.9051941,-71.0609995,508-824-1476,0.0,3
308b5efa-a9c2-3728-b1ff-d29c5f060731,FALLON CLINIC URGENT CARE,630 PLANTATION STREET,WORCESTER,MA,1605,42.2925591,-71.7603169,508-595-2505,0.0,2
90cf148c-69ed-3d33-aa86-b509c6b0b25f,PROMPT CARE WALK-IN CLINIC,170 GOVERNORS AVENUE,MEDFORD,MA,2155,42.4259086,-71.1113649,781-306-6180,0.0,9
1aedcb45-c507-3ad0-9010-6583d264ae72,PRIMA CARE / SOMERSET SWANSEA WALK IN CARE CENTER,67 GRAND ARMY OF THE REPUBLIC HIGHWAY,SOMERSET,MA,2726,41.7258413,-71.1590845,508-678-5631,0.0,5
